[
  {
    "name": "Jurong East",
    "code": "NS1",
    "lat": 1.33315261987297,
    "lng": 103.742286544006
  },
  {
    "name": "Bukit Batok",
    "code": "NS2",
    "lat": 1.34903410858812,
    "lng": 103.749566764129
  },
  {
    "name": "Bukit Gombak",
    "code": "NS3",
    "lat": 1.35861159094194,
    "lng": 103.751790910733
  },
  {
    "name": "Choa Chu Kang",
    "code": "NS4",
    "lat": 1.38536316540226,
    "lng": 103.744370779756
  },
  {
    "name": "Yew Tee",
    "code": "NS5",
    "lat": 1.39753501762625,
    "lng": 103.747405114336
  },
  {
    "name": "Kranji",
    "code": "NS7",
    "lat": 1.42508698073649,
    "lng": 103.762137459497
  },
  {
    "name": "Marsiling",
    "code": "NS8",
    "lat": 1.4325211485503,
    "lng": 103.774074641403
  },
  {
    "name": "Woodlands",
    "code": "NS9",
    "lat": 1.43606698186149,
    "lng": 103.787930806962
  },
  {
    "name": "Admiralty",
    "code": "NS10",
    "lat": 1.44058500086852,
    "lng": 103.800988000403
  },
  {
    "name": "Sembawang",
    "code": "NS11",
    "lat": 1.44905082158503,
    "lng": 103.820046140211
  },
  {
    "name": "Yishun",
    "code": "NS13",
    "lat": 1.42944308039361,
    "lng": 103.83500504643
  },
  {
    "name": "Khatib",
    "code": "NS14",
    "lat": 1.41738337009568,
    "lng": 103.832979908243
  },
  {
    "name": "Yio Chu Kang",
    "code": "NS15",
    "lat": 1.38175588659406,
    "lng": 103.84494728206
  },
  {
    "name": "Ang Mo Kio",
    "code": "NS16",
    "lat": 1.36993317536445,
    "lng": 103.849558130943
  },
  {
    "name": "Bishan",
    "code": "NS17",
    "lat": 1.3508389878474,
    "lng": 103.848143964542
  },
  {
    "name": "Braddell",
    "code": "NS18",
    "lat": 1.34046900102774,
    "lng": 103.846799083148
  },
  {
    "name": "Toa Payoh",
    "code": "NS19",
    "lat": 1.33262898752974,
    "lng": 103.847501764246
  },
  {
    "name": "Novena",
    "code": "NS20",
    "lat": 1.32044079120159,
    "lng": 103.843825618748
  },
  {
    "name": "Newton",
    "code": "NS21",
    "lat": 1.31232009946014,
    "lng": 103.837985299521
  },
  {
    "name": "Orchard",
    "code": "NS22",
    "lat": 1.30397987430726,
    "lng": 103.832245299857
  },
  {
    "name": "Somerset",
    "code": "NS23",
    "lat": 1.30026416739007,
    "lng": 103.839085753124
  },
  {
    "name": "Dhoby Ghaut",
    "code": "NS24",
    "lat": 1.29870130619238,
    "lng": 103.846115155028
  },
  {
    "name": "City Hall",
    "code": "NS25",
    "lat": 1.29293624242153,
    "lng": 103.852585892041
  },
  {
    "name": "Raffles Place",
    "code": "NS26",
    "lat": 1.2841256104366,
    "lng": 103.851461712342
  },
  {
    "name": "Marina Bay",
    "code": "NS27",
    "lat": 1.27642735449345,
    "lng": 103.854597777026
  },
  {
    "name": "Marina South Pier",
    "code": "NS28",
    "lat": 1.2710270361201,
    "lng": 103.862447515736
  },
  {
    "name": "Pasir Ris",
    "code": "EW1",
    "lat": 1.37304321206227,
    "lng": 103.949284605816
  },
  {
    "name": "Tampines",
    "code": "EW2",
    "lat": 1.35330153265954,
    "lng": 103.945144689278
  },
  {
    "name": "Simei",
    "code": "EW3",
    "lat": 1.34320289478118,
    "lng": 103.953371694102
  },
  {
    "name": "Tanah Merah",
    "code": "EW4",
    "lat": 1.32718775009106,
    "lng": 103.946348136559
  },
  {
    "name": "Bedok",
    "code": "EW5",
    "lat": 1.32397996868161,
    "lng": 103.929984495066
  },
  {
    "name": "Kembangan",
    "code": "EW6",
    "lat": 1.32103824851416,
    "lng": 103.912949388089
  },
  {
    "name": "Eunos",
    "code": "EW7",
    "lat": 1.31978354779207,
    "lng": 103.903225812967
  },
  {
    "name": "Paya Lebar",
    "code": "EW8",
    "lat": 1.31811208187582,
    "lng": 103.893060355199
  },
  {
    "name": "Aljunied",
    "code": "EW9",
    "lat": 1.31643261181573,
    "lng": 103.882906044385
  },
  {
    "name": "Kallang",
    "code": "EW10",
    "lat": 1.31148890998822,
    "lng": 103.871386541754
  },
  {
    "name": "Lavender",
    "code": "EW11",
    "lat": 1.30737750842617,
    "lng": 103.862767633612
  },
  {
    "name": "Bugis",
    "code": "EW12",
    "lat": 1.30046507606683,
    "lng": 103.855706414086
  },
  {
    "name": "City Hall",
    "code": "EW13",
    "lat": 1.29293624242153,
    "lng": 103.852585892041
  },
  {
    "name": "Raffles Place",
    "code": "EW14",
    "lat": 1.2841256104366,
    "lng": 103.851461712342
  },
  {
    "name": "Tanjong Pagar",
    "code": "EW15",
    "lat": 1.2765613173725,
    "lng": 103.845725186759
  },
  {
    "name": "Outram Park",
    "code": "EW16",
    "lat": 1.27973970679336,
    "lng": 103.839513521005
  },
  {
    "name": "Tiong Bahru",
    "code": "EW17",
    "lat": 1.28610253615777,
    "lng": 103.827445112419
  },
  {
    "name": "Redhill",
    "code": "EW18",
    "lat": 1.28963453358141,
    "lng": 103.816740969874
  },
  {
    "name": "Queenstown",
    "code": "EW19",
    "lat": 1.29455085184934,
    "lng": 103.806077155982
  },
  {
    "name": "Commonwealth",
    "code": "EW20",
    "lat": 1.30250853704708,
    "lng": 103.798226128263
  },
  {
    "name": "Buona Vista",
    "code": "EW21",
    "lat": 1.30722370820444,
    "lng": 103.790253514502
  },
  {
    "name": "Dover",
    "code": "EW22",
    "lat": 1.31140529320966,
    "lng": 103.778637841909
  },
  {
    "name": "Clementi",
    "code": "EW23",
    "lat": 1.3152012635208,
    "lng": 103.765182446647
  },
  {
    "name": "Jurong East",
    "code": "EW24",
    "lat": 1.33315261987297,
    "lng": 103.742286544006
  },
  {
    "name": "Chinese Garden",
    "code": "EW25",
    "lat": 1.34235282081403,
    "lng": 103.732596738363
  },
  {
    "name": "Lakeside",
    "code": "EW26",
    "lat": 1.34425913054043,
    "lng": 103.720949076305
  },
  {
    "name": "Boon Lay",
    "code": "EW27",
    "lat": 1.33860405469846,
    "lng": 103.706064622772
  },
  {
    "name": "Pioneer",
    "code": "EW28",
    "lat": 1.33758688240768,
    "lng": 103.697321513018
  },
  {
    "name": "Joo Koon",
    "code": "EW29",
    "lat": 1.32771717334029,
    "lng": 103.678375143838
  },
  {
    "name": "Gul Circle",
    "code": "EW30",
    "lat": 1.319470868174,
    "lng": 103.660530403418
  },
  {
    "name": "Tuas Crescent",
    "code": "EW31",
    "lat": 1.32102695188066,
    "lng": 103.649078232635
  },
  {
    "name": "Tuas West Road",
    "code": "EW32",
    "lat": 1.3299890890646,
    "lng": 103.63961405628
  },
  {
    "name": "Tuas Link",
    "code": "EW33",
    "lat": 1.34088242451108,
    "lng": 103.636991425128
  },
  {
    "name": "Expo",
    "code": "CG1",
    "lat": 1.33538252614957,
    "lng": 103.962374747451
  },
  {
    "name": "Changi Airport",
    "code": "CG2",
    "lat": 1.35747897447696,
    "lng": 103.98788356959
  },
  {
    "name": "HarbourFront",
    "code": "NE1",
    "lat": 1.26538938402277,
    "lng": 103.821530156823
  },
  {
    "name": "Outram Park",
    "code": "NE3",
    "lat": 1.27973970679336,
    "lng": 103.839513521005
  },
  {
    "name": "Chinatown",
    "code": "NE4",
    "lat": 1.28422391919087,
    "lng": 103.845143798953
  },
  {
    "name": "Clarke Quay",
    "code": "NE5",
    "lat": 1.28838602407589,
    "lng": 103.846555209694
  },
  {
    "name": "Dhoby Ghaut",
    "code": "NE6",
    "lat": 1.29870130619238,
    "lng": 103.846115155028
  },
  {
    "name": "Little India",
    "code": "NE7",
    "lat": 1.30680002560554,
    "lng": 103.84964696645
  },
  {
    "name": "Farrer Park",
    "code": "NE8",
    "lat": 1.31190557325777,
    "lng": 103.853477716509
  },
  {
    "name": "Boon Keng",
    "code": "NE9",
    "lat": 1.31933570922515,
    "lng": 103.861569454156
  },
  {
    "name": "Potong Pasir",
    "code": "NE10",
    "lat": 1.33137952497763,
    "lng": 103.869055665485
  },
  {
    "name": "Woodleigh",
    "code": "NE11",
    "lat": 1.33919004519393,
    "lng": 103.87081830915
  },
  {
    "name": "Serangoon",
    "code": "NE12",
    "lat": 1.34970787487358,
    "lng": 103.873574846893
  },
  {
    "name": "Kovan",
    "code": "NE13",
    "lat": 1.36017917065238,
    "lng": 103.885064856353
  },
  {
    "name": "Hougang",
    "code": "NE14",
    "lat": 1.37129229221246,
    "lng": 103.892380518741
  },
  {
    "name": "Buangkok",
    "code": "NE15",
    "lat": 1.38287785835055,
    "lng": 103.893121564391
  },
  {
    "name": "Sengkang",
    "code": "NE16",
    "lat": 1.39169462601523,
    "lng": 103.895484694279
  },
  {
    "name": "Punggol",
    "code": "NE17",
    "lat": 1.40454672748107,
    "lng": 103.902072638825
  },
  {
    "name": "Dhoby Ghaut",
    "code": "CC1",
    "lat": 1.29870130619238,
    "lng": 103.846115155028
  },
  {
    "name": "Bras Basah",
    "code": "CC2",
    "lat": 1.29686168649658,
    "lng": 103.850667371637
  },
  {
    "name": "Esplanade",
    "code": "CC3",
    "lat": 1.29365772453863,
    "lng": 103.855081226245
  },
  {
    "name": "Promenade",
    "code": "CC4",
    "lat": 1.29399856913986,
    "lng": 103.860350000195
  },
  {
    "name": "Nicoll Highway",
    "code": "CC5",
    "lat": 1.29976683498024,
    "lng": 103.863637018754
  },
  {
    "name": "Stadium",
    "code": "CC6",
    "lat": 1.30281246847074,
    "lng": 103.875337711089
  },
  {
    "name": "Mountbatten",
    "code": "CC7",
    "lat": 1.30620190525333,
    "lng": 103.882528081052
  },
  {
    "name": "Dakota",
    "code": "CC8",
    "lat": 1.30854798388123,
    "lng": 103.889064718377
  },
  {
    "name": "Paya Lebar",
    "code": "CC9",
    "lat": 1.31811208187582,
    "lng": 103.893060355199
  },
  {
    "name": "MacPherson",
    "code": "CC10",
    "lat": 1.32615024293134,
    "lng": 103.889298596024
  },
  {
    "name": "Tai Seng",
    "code": "CC11",
    "lat": 1.33510208507523,
    "lng": 103.88843301279
  },
  {
    "name": "Bartley",
    "code": "CC12",
    "lat": 1.34250117805246,
    "lng": 103.880177899184
  },
  {
    "name": "Serangoon",
    "code": "CC13",
    "lat": 1.34970787487358,
    "lng": 103.873574846893
  },
  {
    "name": "Lorong Chuan",
    "code": "CC14",
    "lat": 1.35161217074559,
    "lng": 103.864151938651
  },
  {
    "name": "Bishan",
    "code": "CC15",
    "lat": 1.3508389878474,
    "lng": 103.848143964542
  },
  {
    "name": "Marymount",
    "code": "CC16",
    "lat": 1.34870726345102,
    "lng": 103.839423132332
  },
  {
    "name": "Caldecott",
    "code": "CC17",
    "lat": 1.3376745081562,
    "lng": 103.839529820338
  },
  {
    "name": "Botanic Gardens",
    "code": "CC19",
    "lat": 1.32211373558878,
    "lng": 103.814984510627
  },
  {
    "name": "Farrer Road",
    "code": "CC20",
    "lat": 1.31743915158969,
    "lng": 103.807379214161
  },
  {
    "name": "Holland Village",
    "code": "CC21",
    "lat": 1.312240296316,
    "lng": 103.796399122407
  },
  {
    "name": "Buona Vista",
    "code": "CC22",
    "lat": 1.30722370820444,
    "lng": 103.790253514502
  },
  {
    "name": "one-north",
    "code": "CC23",
    "lat": 1.29975987849417,
    "lng": 103.78745750797
  },
  {
    "name": "Kent Ridge",
    "code": "CC24",
    "lat": 1.29353698622128,
    "lng": 103.784572366595
  },
  {
    "name": "Haw Par Villa",
    "code": "CC25",
    "lat": 1.28257135827237,
    "lng": 103.781752724792
  },
  {
    "name": "Pasir Panjang",
    "code": "CC26",
    "lat": 1.27621352233768,
    "lng": 103.791350313288
  },
  {
    "name": "Labrador Park",
    "code": "CC27",
    "lat": 1.27225417749657,
    "lng": 103.802631578766
  },
  {
    "name": "Telok Blangah",
    "code": "CC28",
    "lat": 1.27070647717764,
    "lng": 103.809761611219
  },
  {
    "name": "HarbourFront",
    "code": "CC29",
    "lat": 1.26538938402277,
    "lng": 103.821530156823
  },
  {
    "name": "Bayfront",
    "code": "CE1",
    "lat": 1.2818737887921,
    "lng": 103.859079764874
  },
  {
    "name": "Marina Bay",
    "code": "CE2",
    "lat": 1.27642735449345,
    "lng": 103.854597777026
  },
  {
    "name": "Bukit Panjang",
    "code": "DT1",
    "lat": 1.37900211641038,
    "lng": 103.761535114929
  },
  {
    "name": "Cashew",
    "code": "DT2",
    "lat": 1.36981544925554,
    "lng": 103.76443921414
  },
  {
    "name": "Hillview",
    "code": "DT3",
    "lat": 1.3623448680356,
    "lng": 103.767418254007
  },
  {
    "name": "Beauty World",
    "code": "DT5",
    "lat": 1.34122317558553,
    "lng": 103.775794285083
  },
  {
    "name": "King Albert Park",
    "code": "DT6",
    "lat": 1.33566276229995,
    "lng": 103.783399113418
  },
  {
    "name": "Sixth Avenue",
    "code": "DT7",
    "lat": 1.33085764536228,
    "lng": 103.796906838288
  },
  {
    "name": "Tan Kah Kee",
    "code": "DT8",
    "lat": 1.325556235199,
    "lng": 103.807760304729
  },
  {
    "name": "Botanic Gardens",
    "code": "DT9",
    "lat": 1.32211373558878,
    "lng": 103.814984510627
  },
  {
    "name": "Stevens",
    "code": "DT10",
    "lat": 1.32006555750627,
    "lng": 103.826024401924
  },
  {
    "name": "Newton",
    "code": "DT11",
    "lat": 1.31232009946014,
    "lng": 103.837985299521
  },
  {
    "name": "Little India",
    "code": "DT12",
    "lat": 1.30680002560554,
    "lng": 103.84964696645
  },
  {
    "name": "Rochor",
    "code": "DT13",
    "lat": 1.30385218527657,
    "lng": 103.852769428884
  },
  {
    "name": "Bugis",
    "code": "DT14",
    "lat": 1.30046507606683,
    "lng": 103.855706414086
  },
  {
    "name": "Promenade",
    "code": "DT15",
    "lat": 1.29399856913986,
    "lng": 103.860350000195
  },
  {
    "name": "Bayfront",
    "code": "DT16",
    "lat": 1.2818737887921,
    "lng": 103.859079764874
  },
  {
    "name": "Downtown",
    "code": "DT17",
    "lat": 1.27944619017902,
    "lng": 103.852840444471
  },
  {
    "name": "Telok Ayer",
    "code": "DT18",
    "lat": 1.28206894769397,
    "lng": 103.848648781083
  },
  {
    "name": "Chinatown",
    "code": "DT19",
    "lat": 1.28422391919087,
    "lng": 103.845143798953
  },
  {
    "name": "Fort Canning",
    "code": "DT20",
    "lat": 1.29248123652549,
    "lng": 103.844331060302
  },
  {
    "name": "Bencoolen",
    "code": "DT21",
    "lat": 1.29891843369424,
    "lng": 103.850353762717
  },
  {
    "name": "Jalan Besar",
    "code": "DT22",
    "lat": 1.30517138780691,
    "lng": 103.855295713435
  },
  {
    "name": "Bendemeer",
    "code": "DT23",
    "lat": 1.31367252847692,
    "lng": 103.862977620945
  },
  {
    "name": "Geylang Bahru",
    "code": "DT24",
    "lat": 1.32130110228324,
    "lng": 103.871622627142
  },
  {
    "name": "Mattar",
    "code": "DT25",
    "lat": 1.32687671501337,
    "lng": 103.883247509542
  },
  {
    "name": "MacPherson",
    "code": "DT26",
    "lat": 1.32615024293134,
    "lng": 103.889298596024
  },
  {
    "name": "Ubi",
    "code": "DT27",
    "lat": 1.32997462900521,
    "lng": 103.899226655449
  },
  {
    "name": "Kaki Bukit",
    "code": "DT28",
    "lat": 1.33496730163706,
    "lng": 103.908459734312
  },
  {
    "name": "Bedok North",
    "code": "DT29",
    "lat": 1.33474211664093,
    "lng": 103.91797832995
  },
  {
    "name": "Bedok Reservoir",
    "code": "DT30",
    "lat": 1.33660782955102,
    "lng": 103.932234623286
  },
  {
    "name": "Tampines West",
    "code": "DT31",
    "lat": 1.34551530560122,
    "lng": 103.938436971222
  },
  {
    "name": "Tampines",
    "code": "DT32",
    "lat": 1.35330153265954,
    "lng": 103.945144689278
  },
  {
    "name": "Tampines East",
    "code": "DT33",
    "lat": 1.35619148271548,
    "lng": 103.9546344625
  },
  {
    "name": "Upper Changi",
    "code": "DT34",
    "lat": 1.34173978431351,
    "lng": 103.961472614026
  },
  {
    "name": "Expo",
    "code": "DT35",
    "lat": 1.33538252614957,
    "lng": 103.962374747451
  }
]